[{"city":"Belo Horizonte","longitude":-43.93523760000001,"latitude":-19.9245018},
{"city":"Goiânia","longitude":-49.26478849999999,"latitude":-16.6868824},
{"city":"Brasília","longitude":-47.8821658,"latitude":-15.7942287},
{"city":"Foz do Iguaçu","longitude":-54.58537639999999,"latitude":-25.5163356},
{"city":"Campo Grande","longitude":-54.6201211,"latitude":-20.4697105},
{"city":"Curitiba","longitude":-49.2653819,"latitude":-25.4244287},
{"city":"Ilhéus","longitude":-39.0463797,"latitude":-14.7935051},
{"city":"Florianópolis","longitude":-48.54821949999999,"latitude":-27.5948698},
{"city":"São Paulo","longitude":-46.63330939999999,"latitude":-23.5505199},
{"city":"Cuiabá","longitude":-56.0978917,"latitude":-15.6014109},
{"city":"João Pessoa","longitude":-34.8450118,"latitude":-7.119495799999999},
{"city":"Palmas","longitude":-48.32428580000001,"latitude":-10.249091},
{"city":"Rio de Janeiro","longitude":-43.1728965,"latitude":-22.9068467},
{"city":"Londrina","longitude":-51.1695824,"latitude":-23.3044524},
{"city":"Porto Seguro","longitude":-39.0653656,"latitude":-16.4443537},
{"city":"Navegantes","longitude":-48.6550692,"latitude":-26.8947924},
{"city":"Joinville","longitude":-48.84638320000001,"latitude":-26.3044084},
{"city":"Natal","longitude":-35.200916,"latitude":-5.7792569},
{"city":"Porto Alegre","longitude":-51.2176584,"latitude":-30.0346471},
{"city":"Ribeirão Preto","longitude":-47.8103238,"latitude":-21.1704008},
{"city":"Fortaleza","longitude":-38.5267393,"latitude":-3.7319029},
{"city":"Uberlândia","longitude":-48.2753801,"latitude":-18.9146078},
{"city":"Aracaju","longitude":-37.0730823,"latitude":-10.9472468},
{"city":"Campinas","longitude":-47.0625812,"latitude":-22.9098833},
{"city":"Manaus","longitude":-60.0217314,"latitude":-3.1190275},
{"city":"Maceió","longitude":-35.7089492,"latitude":-9.6498487},
{"city":"Recife","longitude":-34.8769643,"latitude":-8.0475622},
{"city":"São Luís","longitude":-44.28290459999999,"latitude":-2.5391099},
{"city":"Salvador","longitude":-88.89653,"latitude":13.794185},
{"city":"Vitória","longitude":-40.2957768,"latitude":-20.2976178},
{"city":"Belém","longitude":-48.4901968,"latitude":-1.4557794},
{"city":"Bauru","longitude":-49.0586951,"latitude":-22.314459},
{"city":"Juiz de Fora","longitude":-43.3433999,"latitude":-21.7624237},
{"city":"Maringá","longitude":-51.9330558,"latitude":-23.4209995},
{"city":"Teresina","longitude":-42.80375970000001,"latitude":-5.0920108},
{"city":"Macapá","longitude":-51.070535,"latitude":0.0355735},
{"city":"Santarém","longitude":-54.7009228,"latitude":-2.4506291},
{"city":"Imperatriz","longitude":-47.4718463,"latitude":-5.5205646},
{"city":"São José do Rio Preto","longitude":-49.3762272,"latitude":-20.811761},
{"city":"Boa Vista","longitude":-22.8078335,"latitude":16.0950108},
{"city":"Montes Claros","longitude":-43.8582139,"latitude":-16.7286406},
{"city":"Marabá","longitude":-49.1331046,"latitude":-5.3811326},
{"city":"Jaguaruna","longitude":-49.0211225,"latitude":-28.6504899},
{"city":"Cabo Frio","longitude":-42.0262542,"latitude":-22.8867507},
{"city":"Campina Grande","longitude":-35.8808337,"latitude":-7.2290752},
{"city":"Caxias do Sul","longitude":-51.1796683,"latitude":-29.1634031},
{"city":"Chapecó","longitude":-52.615699,"latitude":-27.1009343},
{"city":"Porto Velho","longitude":-63.9004303,"latitude":-8.761160499999999},
{"city":"Dourados","longitude":-54.82912589999999,"latitude":-22.2272034},
{"city":"Marília","longitude":-49.9505101,"latitude":-22.2175997},
{"city":"Paris","longitude":2.3522219,"latitude":48.856614},
{"city":"Boston","longitude":-71.0588801,"latitude":42.3600825},
{"city":"Cataratas del Iguazú","longitude":-54.4366662,"latitude":-25.695259},
{"city":"Santiago","longitude":-70.6692655,"latitude":-33.4488897},
{"city":"Lisboa","longitude":-9.1393366,"latitude":38.7222524},
{"city":"Londres","longitude":-0.1277583,"latitude":51.5073509},
{"city":"Passo Fundo","longitude":-52.4160039,"latitude":-28.2587812},
{"city":"Vitória da Conquista","longitude":-40.8445346,"latitude":-14.8619237},
{"city":"Rio Branco","longitude":-67.824918,"latitude":-9.975383700000002},
{"city":"Ushuaia","longitude":-68.3029511,"latitude":-54.8019121},
{"city":"Miami","longitude":-80.1917902,"latitude":25.7616798},
{"city":"San Francisco","longitude":-122.4194155,"latitude":37.7749295},
{"city":"Bogotá","longitude":-74.072092,"latitude":4.710988599999999},
{"city":"Dublin","longitude":-6.2603097,"latitude":53.3498053},
{"city":"Assunção","longitude":-57.57592599999999,"latitude":-25.2637399},
{"city":"Amsterdã","longitude":4.895167900000001,"latitude":52.3702157},
{"city":"Cidade do Panamá","longitude":-79.51986959999999,"latitude":8.9823792},
{"city":"Cancun","longitude":-86.8515279,"latitude":21.161908},
{"city":"San Juan","longitude":-66.1057355,"latitude":18.4655394},
{"city":"Los Angeles","longitude":-118.2436849,"latitude":34.0522342},
{"city":"Nova York","longitude":-74.0059728,"latitude":40.7127753},
{"city":"Puerto Maldonado","longitude":-69.1963141,"latitude":-12.5909084},
{"city":"Moscou","longitude":37.6172999,"latitude":55.755826},
{"city":"Pittsburgh","longitude":-79.9958864,"latitude":40.44062479999999},
{"city":"Tel Aviv","longitude":34.78176759999999,"latitude":32.0852999},
{"city":"Madri","longitude":-3.7037902,"latitude":40.4167754},
{"city":"Hamburgo","longitude":9.9936819,"latitude":53.5510846},
{"city":"Montevidéu","longitude":-56.16453139999999,"latitude":-34.9011127},
{"city":"Lima","longitude":-77.042754,"latitude":-12.0463731},
{"city":"Buenos Aires","longitude":-58.3815591,"latitude":-34.6036844},
{"city":"Petrolina","longitude":-40.5030961,"latitude":-9.389083},
{"city":"Juazeiro do Norte","longitude":-39.3121233,"latitude":-7.228472699999999},
{"city":"Cascavel","longitude":-53.45951119999999,"latitude":-24.9577771},
{"city":"Santa Maria","longitude":-120.4357191,"latitude":34.9530337},
{"city":"Pelotas","longitude":-52.3375886,"latitude":-31.7653989},
{"city":"Araçatuba","longitude":-50.4536793,"latitude":-21.2028539},
{"city":"Varginha","longitude":-45.4368421,"latitude":-21.5560521},
{"city":"Presidente Prudente","longitude":-51.39302540000001,"latitude":-22.121114},
{"city":"Ipatinga","longitude":-42.5480125,"latitude":-19.4707617},
{"city":"Ponta Grossa","longitude":-50.1584514,"latitude":-25.0993621},
{"city":"Barreiras","longitude":-44.9953475,"latitude":-12.1477483},
{"city":"Campos dos Goytacazes","longitude":-41.3184877,"latitude":-21.7626902},
{"city":"Santo Ângelo","longitude":-54.2673083,"latitude":-28.3006117},
{"city":"Carajás","longitude":-50.0666951,"latitude":-6.0703064},
{"city":"Teixeira de Freitas","longitude":-39.7421813,"latitude":-17.5400307},
{"city":"Uberaba","longitude":-47.93916249999999,"latitude":-19.7473748},
{"city":"Araxá","longitude":-46.9442412,"latitude":-19.5906483},
{"city":"Divinópolis","longitude":-44.8916447,"latitude":-20.1451261},
{"city":"Uruguaiana","longitude":-57.08584279999999,"latitude":-29.7619121},
{"city":"Três Lagoas","longitude":-51.7030882,"latitude":-20.7881656},
{"city":"Cruzeiro do Sul","longitude":-47.421195,"latitude":-23.479661},
{"city":"Tefé","longitude":-64.7148236,"latitude":-3.3514753},
{"city":"Lençóis","longitude":-41.3898761,"latitude":-12.5617279},
{"city":"Sinop","longitude":35.151725,"latitude":42.02797400000001},
{"city":"Barra do Garças","longitude":-52.2618826,"latitude":-15.8916202},
{"city":"Corumbá","longitude":-57.65155029999999,"latitude":-19.0081688},
{"city":"Araguaina","longitude":-48.20482699999999,"latitude":-7.192773300000001},
{"city":"Governador Valadares","longitude":-41.95592329999999,"latitude":-18.8549317},
{"city":"Alta Floresta","longitude":-56.08550899999999,"latitude":-9.8764576},
{"city":"Feira de Santana","longitude":-38.9646608,"latitude":-12.2597272},
{"city":"Vilhena","longitude":-60.1304566,"latitude":-12.7414031},
{"city":"Parnaíba","longitude":-41.7733626,"latitude":-2.9055447},
{"city":"Paulo Afonso","longitude":-38.2163717,"latitude":-9.406125099999999},
{"city":"Tabatinga","longitude":-69.936928,"latitude":-4.2316306},
{"city":"Sorriso","longitude":-55.72153669999999,"latitude":-12.5429456},
{"city":"Caldas Novas","longitude":-48.598804,"latitude":-17.7006127},
{"city":"Fernando de Noronha","longitude":-32.4268917,"latitude":-3.8447976},
{"city":"Ji-Paraná","longitude":-61.93267280000001,"latitude":-10.8781412},
{"city":"Rio Verde","longitude":-111.6756942,"latitude":33.7225429},
{"city":"Lages","longitude":-50.3263964,"latitude":-27.8157141},
{"city":"Cartagena","longitude":-75.4794257,"latitude":10.3910485},
{"city":"San Andrés","longitude":-81.7075787,"latitude":12.5450153},
{"city":"Santa Clara","longitude":-121.9552356,"latitude":37.3541079},
{"city":"Valença (Bahia)","longitude":-39.072909,"latitude":-13.3708767},
{"city":"Bonito","longitude":-105.7088741,"latitude":33.4506345},
{"city":"Seul","longitude":126.9779692,"latitude":37.566535},
{"city":"Rondonópolis","longitude":-54.6387369,"latitude":-16.4654526},
{"city":"Cacoal","longitude":-61.45668850000001,"latitude":-11.434693},
{"city":"Altamira","longitude":-97.92115550000001,"latitude":22.4077462},
{"city":"Seicheles","longitude":55.491977,"latitude":-4.679574},
{"city":"Curaçao","longitude":-68.99002,"latitude":12.16957},
{"city":"Hong Kong","longitude":114.109497,"latitude":22.396428},
{"city":"Cusco","longitude":-71.96746259999999,"latitude":-13.53195},
{"city":"Cidade do México","longitude":-99.133208,"latitude":19.4326077},
{"city":"Orlando","longitude":-81.3792365,"latitude":28.5383355},
{"city":"Havana","longitude":-90.0609506,"latitude":40.3000428},
{"city":"Mendoza","longitude":-68.8458386,"latitude":-32.8894587},
{"city":"Houston","longitude":-95.3698028,"latitude":29.7604267},
{"city":"Tóquio","longitude":139.6917064,"latitude":35.6894875},
{"city":"Auckland","longitude":174.7633315,"latitude":-36.8484597},
{"city":"Ottawa","longitude":-75.69719309999999,"latitude":45.4215296},
{"city":"Toronto","longitude":-79.3831843,"latitude":43.653226},
{"city":"Seymour (Galápagos)","longitude":-90.28783260000002,"latitude":-0.3960225},
{"city":"Nagoia","longitude":136.906398,"latitude":35.1814464},
{"city":"Osaka","longitude":135.5021651,"latitude":34.6937378},
{"city":"Edmonton","longitude":-113.4909267,"latitude":53.544389},
{"city":"Puerto Montt","longitude":-72.94113639999999,"latitude":-41.468917},
{"city":"Sydney","longitude":151.2092955,"latitude":-33.8688197},
{"city":"Quebec","longitude":-73.5491361,"latitude":52.9399159},
{"city":"Kobe","longitude":135.1955112,"latitude":34.690083},
{"city":"Queenstown","longitude":168.6626435,"latitude":-45.0311622},
{"city":"Bruxelas (Estação de Trem)","longitude":4.3347878,"latitude":50.83644109999999},
{"city":"Genebra","longitude":6.1431577,"latitude":46.2043907},
{"city":"Brisbane","longitude":153.0251235,"latitude":-27.4697707},
{"city":"Austin","longitude":-97.7430608,"latitude":30.267153},
{"city":"Wellington","longitude":174.776236,"latitude":-41.2864603},
{"city":"Milão","longitude":9.189982,"latitude":45.4642035},
{"city":"Bruxelas","longitude":4.3517211,"latitude":50.8503463},
{"city":"Bridgetown (Barbados)","longitude":-59.61448189999999,"latitude":13.0968511},
{"city":"Melbourne","longitude":144.9630576,"latitude":-37.8136276},
{"city":"Chicago","longitude":-87.6297982,"latitude":41.8781136},
{"city":"Washington","longitude":-77.0368707,"latitude":38.9071923},
{"city":"Valência","longitude":-0.3762881,"latitude":39.4699075},
{"city":"São Tomé e Príncipe","longitude":6.613080999999999,"latitude":0.18636},
{"city":"Málaga","longitude":-4.4213988,"latitude":36.7212737},
{"city":"Nápoles","longitude":14.2681244,"latitude":40.8517746},
{"city":"Roma","longitude":12.4963655,"latitude":41.9027835},
{"city":"Zurique","longitude":8.541694,"latitude":47.3768866},
{"city":"Istambul","longitude":28.9783589,"latitude":41.0082376},
{"city":"Ontario (Califórnia)","longitude":-117.6508876,"latitude":34.0633443},
{"city":"Fort Lauderdale","longitude":-80.13731740000001,"latitude":26.1224386},
{"city":"Bariloche","longitude":-71.3102778,"latitude":-41.1334722},
{"city":"Atenas","longitude":-84.3738394,"latitude":9.9784936},
{"city":"Las Vegas","longitude":-115.1398296,"latitude":36.1699412},
{"city":"Zagreb","longitude":15.9819189,"latitude":45.8150108},
{"city":"Cidade do Cabo","longitude":18.4240553,"latitude":-33.9248685},
{"city":"Joanesburgo","longitude":28.0473051,"latitude":-26.2041028},
{"city":"Córdoba","longitude":-4.7793835,"latitude":37.8881751},
{"city":"Kuala Lumpur","longitude":101.686855,"latitude":3.139003},
{"city":"Gold Coast","longitude":153.4,"latitude":-28.016667},
{"city":"Calama","longitude":-68.9293819,"latitude":-22.4543923},
{"city":"Aruba","longitude":-69.968338,"latitude":12.52111},
{"city":"Bangkok","longitude":100.5017651,"latitude":13.7563309},
{"city":"Cleveland","longitude":-81.6943605,"latitude":41.49932},
{"city":"Calcutá","longitude":88.36389500000001,"latitude":22.572646},
{"city":"Muscat","longitude":58.4059227,"latitude":23.58589},
{"city":"Delhi","longitude":77.10249019999999,"latitude":28.7040592},
{"city":"Bangalore (Índia)","longitude":77.5945627,"latitude":12.9715987},
{"city":"Punta Arenas","longitude":-70.9170683,"latitude":-53.1638329},
{"city":"Bombaim (Mumbai)","longitude":72.8776559,"latitude":19.0759837},
{"city":"Adelaide","longitude":138.6007456,"latitude":-34.9284989},
{"city":"Fort McMurray","longitude":-111.3803407,"latitude":56.72637959999999},
{"city":"Kelowna (Canadá)","longitude":-119.4960106,"latitude":49.8879519},
{"city":"Maputo","longitude":32.6051351,"latitude":-25.891968},
{"city":"Thunder Bay (Canadá)","longitude":-89.2476823,"latitude":48.3808951},
{"city":"Pequim","longitude":116.4073963,"latitude":39.90419989999999},
{"city":"Guadalajara","longitude":-103.3496092,"latitude":20.6596988},
{"city":"Seattle","longitude":-122.3320708,"latitude":47.6062095},
{"city":"Portland (Óregon)","longitude":-122.6764815,"latitude":45.5230622},
{"city":"Frankfurt","longitude":8.6821267,"latitude":50.1109221},
{"city":"Bali","longitude":115.188916,"latitude":-8.4095178},
{"city":"Baltimore","longitude":-76.6121893,"latitude":39.2903848},
{"city":"Luanda","longitude":13.2894368,"latitude":-8.839987599999999},
{"city":"Nassau","longitude":-77.355413,"latitude":25.0479835},
{"city":"Long Beach","longitude":-118.1937395,"latitude":33.7700504},
{"city":"Zanzibar","longitude":39.202641,"latitude":-6.165916999999999},
{"city":"Hanói","longitude":105.8341598,"latitude":21.0277644},
{"city":"San José (Califórnia)","longitude":-121.8863286,"latitude":37.3382082},
{"city":"Santa Ana (Califórnia)","longitude":-117.867653,"latitude":33.7454725},
{"city":"Oakland (Califórnia)","longitude":-122.2711137,"latitude":37.8043637},
{"city":"Ilhas Maurício","longitude":57.55215200000001,"latitude":-20.348404},
{"city":"Phuket","longitude":98.33808839999999,"latitude":7.9519331},
{"city":"Cingapura","longitude":103.819836,"latitude":1.352083},
{"city":"Casablanca","longitude":-7.589843399999999,"latitude":33.5731104},
{"city":"Papeete (Taiti)","longitude":-149.5584758,"latitude":-17.5516251},
{"city":"Fresno","longitude":-119.7725868,"latitude":36.7468422},
{"city":"El Calafate","longitude":-72.2647982,"latitude":-50.337969},
{"city":"Ho Chi Minh","longitude":106.6296638,"latitude":10.8230989},
{"city":"Xangai","longitude":121.4737021,"latitude":31.2303904},
{"city":"Hanga Roa","longitude":-109.4333,"latitude":-27.15},
{"city":"Denver","longitude":-104.990251,"latitude":39.7392358},
{"city":"Dubai","longitude":55.2707828,"latitude":25.2048493},
{"city":"Kilimanjaro","longitude":37.35562729999999,"latitude":-3.0674247},
{"city":"Jericoacoara","longitude":-40.514267,"latitude":-2.7956135},
{"city":"Providenciales (Turcas e Caicos)","longitude":-72.271908,"latitude":21.7737654},
{"city":"Puerto Vallarta (Riviera Nayarit)","longitude":-105.30069,"latitude":20.706996},
{"city":"Belgrado","longitude":20.4489216,"latitude":44.786568},
{"city":"Windhoek (Namíbia)","longitude":17.0657549,"latitude":-22.5608807},
{"city":"San José (Costa Rica)","longitude":-84.0907246,"latitude":9.9280694},
{"city":"Krabi (Tailândia)","longitude":98.9062835,"latitude":8.0862997},
{"city":"Veneza","longitude":12.3155151,"latitude":45.4408474},
{"city":"Temuco","longitude":-72.5903739,"latitude":-38.7359018},
{"city":"Holguín","longitude":-76.2594981,"latitude":20.8795129},
{"city":"Munique","longitude":11.5819805,"latitude":48.1351253},
{"city":"La Paz","longitude":-68.11929359999999,"latitude":-16.489689},
{"city":"Berlim","longitude":13.404954,"latitude":52.52000659999999},
{"city":"Cochabamba","longitude":-66.1653224,"latitude":-17.4139766},
{"city":"Santa Cruz de la Sierra","longitude":-63.1560853,"latitude":-17.8145819},
{"city":"Dusseldorf","longitude":6.7734556,"latitude":51.2277411},
{"city":"Canberra","longitude":149.1300092,"latitude":-35.2809368},
{"city":"Dallas","longitude":-96.79698789999999,"latitude":32.7766642},
{"city":"Anchorage","longitude":-149.9002778,"latitude":61.2180556},
{"city":"Singapura","longitude":103.819836,"latitude":1.352083},
{"city":"Arequipa","longitude":-71.53745099999999,"latitude":-16.4090474},
{"city":"Stuttgart","longitude":9.1829321,"latitude":48.7758459},
{"city":"Hangzhou","longitude":120.15507,"latitude":30.274084},
{"city":"Abu Dhabi","longitude":54.3773438,"latitude":24.453884},
{"city":"Stuttgart (Estação de Trem)","longitude":9.1822694,"latitude":48.7832139},
{"city":"Cajamarca","longitude":-78.51278549999999,"latitude":-7.1617465},
{"city":"Colônia","longitude":6.9602786,"latitude":50.937531},
{"city":"Iquitos","longitude":-73.25163260000001,"latitude":-3.7436735},
{"city":"Tarapoto (Peru)","longitude":-76.3726891,"latitude":-6.4824784},
{"city":"Tumbes","longitude":-80.4270885,"latitude":-3.5564921},
{"city":"Pucallpa (Peru)","longitude":-74.5826166,"latitude":-8.3928622},
{"city":"Chiclayo","longitude":-79.84429779999999,"latitude":-6.776597400000001},
{"city":"Juliaca","longitude":-70.12965299999999,"latitude":-15.4996879},
{"city":"Alicante","longitude":-0.4906855,"latitude":38.3459963},
{"city":"Trujillo","longitude":-79.0215336,"latitude":-8.1090524},
{"city":"Piura","longitude":-80.6548882,"latitude":-5.1782884},
{"city":"Viena","longitude":16.3738189,"latitude":48.2081743},
{"city":"Monterrey","longitude":-100.3161126,"latitude":25.6866142},
{"city":"Bolonha","longitude":11.3426162,"latitude":44.494887},
{"city":"Burbank (Los Angeles)","longitude":-118.3089661,"latitude":34.1808392},
{"city":"Luxemburgo","longitude":6.129582999999999,"latitude":49.815273},
{"city":"Concepción","longitude":-73.0443904,"latitude":-36.8201352},
{"city":"Verona","longitude":10.9916215,"latitude":45.43838419999999},
{"city":"Praga","longitude":14.4378005,"latitude":50.0755381},
{"city":"Guangzhou (Canton)","longitude":113.264385,"latitude":23.12911},
{"city":"Vigo","longitude":-8.7207268,"latitude":42.24059889999999},
{"city":"Chengdu","longitude":104.066801,"latitude":30.572815},
{"city":"Tampa","longitude":-82.4571776,"latitude":27.950575},
{"city":"San Antonio","longitude":-98.49362819999999,"latitude":29.4241219},
{"city":"Palm Springs","longitude":-116.5452921,"latitude":33.8302961},
{"city":"Memphis","longitude":-90.0489801,"latitude":35.1495343},
{"city":"Santa Marta","longitude":-74.2110227,"latitude":11.2403547},
{"city":"Sevilha","longitude":-5.9844589,"latitude":37.3890924},
{"city":"San Rafael","longitude":-122.5310874,"latitude":37.9735346},
{"city":"Bilbao","longitude":-2.9349852,"latitude":43.2630126},
{"city":"Montreal","longitude":-73.567256,"latitude":45.5016889},
{"city":"Nova Orleans","longitude":-90.0715323,"latitude":29.95106579999999},
{"city":"Manchester","longitude":-2.2426305,"latitude":53.4807593},
{"city":"Hannover","longitude":9.732010400000002,"latitude":52.3758916},
{"city":"Edimburgo","longitude":-3.188267,"latitude":55.953252},
{"city":"Palma de Maiorca","longitude":2.6501603,"latitude":39.5696005},
{"city":"Beirute","longitude":35.5017767,"latitude":33.8937913},
{"city":"Catânia (Itália)","longitude":15.0830304,"latitude":37.5078772},
{"city":"Copenhague","longitude":12.5683372,"latitude":55.6760968},
{"city":"Florença","longitude":11.2558136,"latitude":43.7695604},
{"city":"Turim","longitude":7.686856499999999,"latitude":45.070312},
{"city":"Vancouver","longitude":-123.1207375,"latitude":49.2827291},
{"city":"Nice","longitude":7.261953200000001,"latitude":43.7101728},
{"city":"Toulouse","longitude":1.444209,"latitude":43.604652},
{"city":"Lyon","longitude":4.835659,"latitude":45.764043},
{"city":"Marselha","longitude":5.36978,"latitude":43.296482},
{"city":"Bucareste","longitude":26.1025384,"latitude":44.4267674},
{"city":"Helsinque","longitude":24.9383791,"latitude":60.16985569999999},
{"city":"Basileia","longitude":7.5885761,"latitude":47.5595986},
{"city":"Nuremberg","longitude":11.0766654,"latitude":49.4521018},
{"city":"Budapeste","longitude":19.040235,"latitude":47.497912},
{"city":"Bari","longitude":16.8718715,"latitude":41.1171432},
{"city":"Acapulco","longitude":-99.8236533,"latitude":16.8531086},
{"city":"Santiago de Compostela","longitude":-8.5448445,"latitude":42.8782132},
{"city":"Ibiza","longitude":1.4821482,"latitude":39.0200099},
{"city":"Bordeaux","longitude":-0.57918,"latitude":44.837789},
{"city":"Oslo","longitude":10.7522454,"latitude":59.9138688},
{"city":"Sófia (Bulgária)","longitude":23.3218675,"latitude":42.6977082},
{"city":"Punta del Este","longitude":-54.9281496,"latitude":-34.9368789},
{"city":"Pisa","longitude":10.4016888,"latitude":43.7228386},
{"city":"Varsóvia","longitude":21.0122287,"latitude":52.2296756},
{"city":"Oklahoma City","longitude":-97.5164276,"latitude":35.4675602},
{"city":"Calgary","longitude":-114.0708459,"latitude":51.0486151},
{"city":"Punta Cana","longitude":-68.40547289999999,"latitude":18.5820101},
{"city":"Marrakesh","longitude":-7.981084500000001,"latitude":31.6294723},
{"city":"Estocolmo","longitude":18.0685808,"latitude":59.32932349999999},
{"city":"Gênova","longitude":8.946256,"latitude":44.4056499},
{"city":"Halifax","longitude":-70.86198499999999,"latitude":41.99121299999999},
{"city":"Regina (Canadá)","longitude":-104.6188943,"latitude":50.4452112},
{"city":"Taipé (Taiwan)","longitude":121.5654177,"latitude":25.0329694},
{"city":"Granada","longitude":-3.5985571,"latitude":37.1773363},
{"city":"Prince George (Canadá)","longitude":-122.7496693,"latitude":53.9170641},
{"city":"Atlanta","longitude":-84.3879824,"latitude":33.7489954},
{"city":"Victoria","longitude":-97.0035982,"latitude":28.8052674},
{"city":"Quito","longitude":-78.4678382,"latitude":-0.1806532},
{"city":"Winnipeg","longitude":-97.13837439999999,"latitude":49.895136},
{"city":"Saskatoon (Canadá)","longitude":-106.6700458,"latitude":52.1332144},
{"city":"St. John's (Canadá)","longitude":-52.7125768,"latitude":47.5615096},
{"city":"London (Canadá)","longitude":-81.2452768,"latitude":42.9849233},
{"city":"Phoenix","longitude":-112.0740373,"latitude":33.4483771},
{"city":"Moncton (Canadá)","longitude":-64.7782313,"latitude":46.0878165},
{"city":"Hamilton / Toronto","longitude":-79.9089056,"latitude":43.2585135},
{"city":"Detroit","longitude":-83.0457538,"latitude":42.331427},
{"city":"Cairo","longitude":31.2357116,"latitude":30.0444196},
{"city":"Sacramento","longitude":-121.4943996,"latitude":38.5815719},
{"city":"Asturias","longitude":-5.8593267,"latitude":43.3613953},
{"city":"Pamplona","longitude":-1.6457745,"latitude":42.812526},
{"city":"Cincinnati","longitude":-84.5120196,"latitude":39.1031182},
{"city":"Salt Lake City","longitude":-111.8910474,"latitude":40.7607793},
{"city":"La Coruña","longitude":-8.4115401,"latitude":43.3623436},
{"city":"Manila","longitude":120.9842195,"latitude":14.5995124},
{"city":"Barcelona","longitude":2.1734035,"latitude":41.3850639},
{"city":"Rosário","longitude":-60.65053880000001,"latitude":-32.9442426}]